name,lat,lon,住所,URL
八王子市高齢者あんしん相談センター旭町,35.65775017892946,139.33814166881828,八王子市旭町8-10 比留間ビル3階,https://www.city.hachioji.tokyo.jp/tantoumadoguchi/012/004/p018115.html
八王子市高齢者あんしん相談センター高尾,35.64546550977002,139.29215141114565,八王子市東浅川町551-1 東浅川保健福祉センター2階,https://www.city.hachioji.tokyo.jp/tantoumadoguchi/012/004/p018116.html
八王子市高齢者あんしん相談センター左入,35.6858128084883,139.34644766881905,八王子市左入町372-4,https://www.city.hachioji.tokyo.jp/tantoumadoguchi/012/004/p018117.html
八王子市高齢者あんしん相談センター中野,35.67047086720546,139.3164324553269,八王子市中野上町4-27-4　ボナールHONDA1階,https://www.city.hachioji.tokyo.jp/tantoumadoguchi/012/004/p018118.html
八王子市高齢者あんしん相談センター南大沢,35.611317750625986,139.3826793264892,八王子市南大沢2-17-5,https://www.city.hachioji.tokyo.jp/tantoumadoguchi/012/004/p018119.html
八王子市高齢者あんしん相談センターめじろ,35.641432762513034,139.31380712649,八王子市めじろ台2-55-5,https://www.city.hachioji.tokyo.jp/tantoumadoguchi/012/004/p018120.html
八王子市高齢者あんしん相談センター長沼,35.64654468977322,139.36378734342705,八王子市長沼町1302-1 都営長沼第二アパート16号棟1階,https://www.city.hachioji.tokyo.jp/tantoumadoguchi/012/004/p018121.html
